[{"date":"2020-06-20","standard":"test","efficiency":"1106","process":"unknown","address":"this is a test","latitude":"0","uploadImgIDArray":[625,626],"type":"null","operator":"zzy","can":"110","fan":"123","phone":"123234354","name":"test","boost":"456","id":"32426","reflux":"789","longitude":"0"},{"date":"2020年06月20日","standard":"test","efficiency":"1106","process":"unknown","address":"云南大学软件学院","latitude":"0","uploadImgIDArray":[630,631,632],"type":"null","operator":"zzy","can":"110","fan":"123","phone":"123234354","name":"YNU测试平台","boost":"456","id":"-55920407621876427","reflux":"789","longitude":"0"},{"date":"2020-06-20","standard":"test","efficiency":"1106","process":"unknown","address":"this is a test","latitude":"0","uploadImgIDArray":[625,626],"type":"null","operator":"zzy","can":"110","fan":"123","phone":"123234354","name":"test","boost":"456","id":"32426","reflux":"789","longitude":"0"},{"date":"2020年06月19日","standard":"test","efficiency":"1106","process":"unknown","address":"玉溪市","latitude":"0","uploadImgIDArray":[636,637],"type":"null","operator":"test","can":"110","fan":"123","phone":"123234354","name":"九溪镇河口村","boost":"456","id":"29692","reflux":"789","longitude":"0"}]